[
  {
    "id": 1,
    "name": "โรงพยาบาลสัตว์กรุงศรี (24 ชม.)",
    "address": "20/4-7 ถ.คลองมะขามเรียง ต.หอรัตนไชย",
    "location": {
      "lat": 14.35203,
      "lng": 100.57547
    },
    "contact_info": "035-322-000",
    "service_detail": "24 ชม., ผ่าตัด, X-ray, อัลตราซาวด์, เลือด",
    "reviews": "เป็น รพ. ใหญ่ เครื่องมือครบ พึ่งพาได้ยามดึก",
    "rating": "4.3/5"
  },
  {
    "id": 2,
    "name": "โรงพยาบาลสัตว์แกรนด์ (อยุธยา)",
    "address": "54/15-16 หน้าทางเข้าตลาดแกรนด์",
    "location": {
      "lat": 14.36060,
      "lng": 100.59770
    },
    "contact_info": "035-335-553",
    "service_detail": "24 ชม., ผ่าตัดทำหมัน, ฝากเลี้ยง",
    "reviews": "คุณหมอให้คำแนะนำดี สะอาด มีที่จอดรถ",
    "rating": "4.2/5"
  },
  {
    "id": 3,
    "name": "Chou & Me Pet Wellness",
    "address": "163/56-57 โครงการซิตี้พาร์ค (City Park)",
    "location": {
      "lat": 14.32160,
      "lng": 100.61230
    },
    "contact_info": "098-822-6669",
    "service_detail": "วัคซีน, ตรวจสุขภาพ, โรงแรมแยกโซน, สปา",
    "reviews": "ตกแต่งสวย สะอาดมาก บริการระดับพรีเมียม",
    "rating": "4.8/5"
  },
  {
    "id": 4,
    "name": "โรงพยาบาลสัตว์เจ้าพระยา",
    "address": "28-28/1 ถ.อู่ทอง ต.ประตูชัย (เกาะเมือง)",
    "location": {
      "lat": 14.34800,
      "lng": 100.56000
    },
    "contact_info": "084-981-3765",
    "service_detail": "ศัลยกรรมกระดูก, เลเซอร์, อายุรกรรม",
    "reviews": "เชี่ยวชาญเรื่องกระดูกและข้อ อธิบายละเอียด",
    "rating": "4.4/5"
  },
  {
    "id": 5,
    "name": "โรงพยาบาลสัตว์เจดีย์นักเลง",
    "address": "34/3 หมู่ 2 ต.ไผ่ลิง (วงเวียนเจดีย์)",
    "location": {
      "lat": 14.35500,
      "lng": 100.58500
    },
    "contact_info": "064-992-7879",
    "service_detail": "ตรวจทั่วไป, ผ่าตัด, สมาชิก VIP",
    "reviews": "บริการเป็นกันเอง ราคาจับต้องได้ โปรโมชั่นดี",
    "rating": "4.5/5"
  },
  {
    "id": 6,
    "name": "โรงพยาบาลสัตว์คลองสวนพลู",
    "address": "199/381 ถ.ศูนย์ราชการ (ตรงข้ามศาลากลาง)",
    "location": {
      "lat": 14.33850,
      "lng": 100.60520
    },
    "contact_info": "097-085-2895",
    "service_detail": "ผ่าตัด, ทำหมัน, วัคซีน, ฝากเลี้ยง",
    "reviews": "หมอใจดี ราคาไม่แพง เข้าถึงง่าย",
    "rating": "4.2/5"
  },
  {
    "id": 7,
    "name": "โรงพยาบาลสัตว์อโยธยา",
    "address": "158/14 หมู่ 3 หมู่บ้านสบายสบาย",
    "location": {
      "lat": 14.34100,
      "lng": 100.59200
    },
    "contact_info": "088-295-7030",
    "service_detail": "โรคทั่วไป, วัคซีน, ตรวจเลือด",
    "reviews": "ราคาเป็นมิตร คิวไม่ยาว บริการรวดเร็ว",
    "rating": "4.3/5"
  },
  {
    "id": 8,
    "name": "Pet Heal Animal Hospital",
    "address": "53/106 ทางไปวัดป่าโค (ใกล้สถานีรถไฟ)",
    "location": {
      "lat": 14.36150,
      "lng": 100.58300
    },
    "contact_info": "095-886-0644",
    "service_detail": "ธนาคารเลือด, ถ่ายเลือด, ฉุกเฉิน",
    "reviews": "เก่งเคสวิกฤต ช่วยชีวิตสัตว์ป่วยหนักได้ดี",
    "rating": "4.6/5"
  },
  {
    "id": 9,
    "name": "โรงพยาบาลสัตว์บ้านอิงอุ่น",
    "address": "10/5 ถ.อู่ทอง ต.หอรัตนไชย",
    "location": {
      "lat": 14.34950,
      "lng": 100.57320
    },
    "contact_info": "035-241-755",
    "service_detail": "สูติกรรม (ทำคลอด), ฝากเลี้ยง, รักษาทั่วไป",
    "reviews": "หมอประสบการณ์สูง เชื่อถือได้ในพื้นที่",
    "rating": "4.0/5"
  },
  {
    "id": 10,
    "name": "โรงพยาบาลสัตว์เก็ทเวลล์ (Get Well)",
    "address": "111/19 ถ.อยุธยา-อ่างทอง ต.ลำพลี",
    "location": {
      "lat": 14.37210,
      "lng": 100.56350
    },
    "contact_info": "092-999-5095",
    "service_detail": "ผ่าตัด, อายุรกรรม, ฝากเลี้ยง, นอกสถานที่",
    "reviews": "สถานที่กว้างขวาง ใส่ใจรายละเอียดดีมาก",
    "rating": "4.5/5"
  },
  {
    "id": 11,
    "name": "โรงพยาบาลสัตว์บางปะอิน",
    "address": "88/8-9 หมู่ 11 ต.บ้านเลน (ใกล้ที่ว่าการ)",
    "location": {
      "lat": 14.22040,
      "lng": 100.57920
    },
    "contact_info": "035-262-951",
    "service_detail": "เอกซเรย์, ผ่าตัด, รับฝากสัตว์ป่วย",
    "reviews": "เป็นที่พึ่งหลักของชาวบางปะอิน",
    "rating": "4.0/5"
  },
  {
    "id": 12,
    "name": "โรงพยาบาลสัตว์โรจนะ",
    "address": "302/81-82 ต.ลำตาเสา (ติด ถ.โรจนะ)",
    "location": {
      "lat": 14.29850,
      "lng": 100.67800
    },
    "contact_info": "095-502-3718",
    "service_detail": "ผ่าตัดเนื้อเยื่ออ่อน, ขูดหินปูน, วัคซีน",
    "reviews": "เดินทางง่ายสำหรับคนทำงานนิคมฯ สะอาด",
    "rating": "4.1/5"
  },
  {
    "id": 13,
    "name": "ภัคภณสัตวแพทย์",
    "address": "44/65-6 ต.บ้านเลน อ.บางปะอิน",
    "location": {
      "lat": 14.21920,
      "lng": 100.58100
    },
    "contact_info": "081-991-4993",
    "service_detail": "รักษาเบื้องต้น, วัคซีน, ถ่ายพยาธิ",
    "reviews": "หมอใจดี รักสัตว์มาก ราคาประหยัด",
    "rating": "4.4/5"
  },
  {
    "id": 14,
    "name": "บ้านสร้างคลีนิคสัตว์",
    "address": "69/11 ถ.โรจนะ ต.บ้านสร้าง",
    "location": {
      "lat": 14.31500,
      "lng": 100.64000
    },
    "contact_info": "035-330-345",
    "service_detail": "ทำแผล, วัคซีน, ผ่าตัดทำหมัน",
    "reviews": "สะดวกสำหรับคนย่านบ้านสร้าง-วังน้อย",
    "rating": "4.0/5"
  },
  {
    "id": 15,
    "name": "เลิฟด๊อก คลินิก (Love Dog)",
    "address": "ต.คานหาม อ.อุทัย (ใกล้นิคมโรจนะ)",
    "location": {
      "lat": 14.33500,
      "lng": 100.65500
    },
    "contact_info": "089-123-xxxx",
    "service_detail": "อาบน้ำตัดขน, รักษาผิวหนัง",
    "reviews": "งานตัดขนดี ราคาคุ้มค่า (แนะนำจองคิว)",
    "rating": "4.1/5"
  },
  {
    "id": 16,
    "name": "โรงพยาบาลสัตว์กรุงศรี (สาขาโรจนะ)",
    "address": "ต.ไผ่ลิง (แยกจากสาขาใหญ่)",
    "location": {
      "lat": 14.34500,
      "lng": 100.62000
    },
    "contact_info": "035-322-000",
    "service_detail": "รักษาทั่วไป, ตรวจเลือด, วัคซีน",
    "reviews": "มาตรฐานเดียวกับสาขาใหญ่ แต่คิวน้อยกว่า",
    "rating": "4.3/5"
  },
  {
    "id": 17,
    "name": "สัตวแพทย์ คลินิก (หัวรอ)",
    "address": "137/35 ต.หัวรอ (ตรงข้ามวัด)",
    "location": {
      "lat": 14.36500,
      "lng": 100.58000
    },
    "contact_info": "N/A (Walk-in)",
    "service_detail": "รักษาโรคพื้นฐาน, ฉีดวัคซีน",
    "reviews": "คลินิกชุมชน พึ่งพาได้ สะดวกรวดเร็ว",
    "rating": "4.0/5"
  },
  {
    "id": 18,
    "name": "คลินิกหมอตั้ม รักษาสัตว์",
    "address": "โซนเกาะเมือง อยุธยา",
    "location": {
      "lat": 14.35000,
      "lng": 100.57000
    },
    "contact_info": "N/A",
    "service_detail": "รักษาอายุรกรรมทั่วไป",
    "reviews": "หมอพูดจาดี ให้คำปรึกษาเป็นกันเอง",
    "rating": "4.2/5"
  },
  {
    "id": 19,
    "name": "หมอพี สัตวแพทย์ (Mor P)",
    "address": "ต.คานหาม อ.อุทัย",
    "location": {
      "lat": 14.33700,
      "lng": 100.65700
    },
    "contact_info": "094-985-5542",
    "service_detail": "รักษาทั่วไป, ตรวจสุขภาพสัตว์เลี้ยง",
    "reviews": "ดูแลเอาใจใส่ดี บริการรวดเร็ว",
    "rating": "4.3/5"
  },
  {
    "id": 20,
    "name": "Pet House 24hr (Emergency)",
    "address": "โซนอุทัย / โรจนะ",
    "location": {
      "lat": 14.33000,
      "lng": 100.60000
    },
    "contact_info": "N/A",
    "service_detail": "ฉุกเฉิน, รับเคสด่วน (ตรวจสอบหน้างาน)",
    "reviews": "เหมาะสำหรับเคสด่วนย่านอุทัย",
    "rating": "4.0/5"
  },
  {
    "id": 21,
    "name": "สัตวแพทย์บางปะอิน คลินิก",
    "address": "44/65-6 ต.บ้านเลน",
    "location": {
      "lat": 14.22000,
      "lng": 100.58000
    },
    "contact_info": "N/A",
    "service_detail": "รักษาโรคทั่วไป, วัคซีน",
    "reviews": "บริการมาตรฐานชุมชน ราคาไม่แพง",
    "rating": "4.0/5"
  },
  {
    "id": 22,
    "name": "วังน้อย รักษาสัตว์",
    "address": "ตลาดวังน้อย อ.วังน้อย",
    "location": {
      "lat": 14.23000,
      "lng": 100.71500
    },
    "contact_info": "N/A",
    "service_detail": "รักษาทั่วไป, ขายยา/อาหารสัตว์",
    "reviews": "สะดวกสำหรับคนวังน้อย ไม่ต้องเข้าเมือง",
    "rating": "4.0/5"
  },
  {
    "id": 23,
    "name": "ศรีเสนารักษ์สัตว์ (Si Sena)",
    "address": "ต.สามกอ อ.เสนา",
    "location": {
      "lat": 14.32600,
      "lng": 100.40400
    },
    "contact_info": "035-201-xxx",
    "service_detail": "รักษาโรคทั่วไป, ผ่าตัดเล็ก",
    "reviews": "คลินิกหลักในอำเภอเสนา ไว้ใจได้",
    "rating": "4.1/5"
  },
  {
    "id": 24,
    "name": "บัญชารักษาสัตว์",
    "address": "ต.บางนมโค อ.เสนา",
    "location": {
      "lat": 14.31500,
      "lng": 100.41000
    },
    "contact_info": "080-309-0537",
    "service_detail": "รักษาปศุสัตว์และสัตว์เลี้ยง, วัคซีน",
    "reviews": "หมอมีความรู้กว้างขวาง ทั้งสัตว์เล็ก/ใหญ่",
    "rating": "4.2/5"
  },
  {
    "id": 25,
    "name": "พระคุณเพ็ทช็อป & คลินิก",
    "address": "ต.สามกอ อ.เสนา",
    "location": {
      "lat": 14.32000,
      "lng": 100.40000
    },
    "contact_info": "081-173-9040",
    "service_detail": "เพ็ทช็อปครบวงจร, รักษาเบื้องต้น",
    "reviews": "สินค้าเยอะ บริการดี สะดวกครบจบที่เดียว",
    "rating": "4.3/5"
  },
  {
    "id": 26,
    "name": "พร้อม เพ็ทช็อป (คลินิก)",
    "address": "ต.เจ้าเจ็ด อ.เสนา",
    "location": {
      "lat": 14.32200,
      "lng": 100.40200
    },
    "contact_info": "080-079-0502",
    "service_detail": "อาบน้ำตัดขน, วัคซีน, อาหารสัตว์",
    "reviews": "บริการตัดขนสวย เจ้าของร้านใจดี",
    "rating": "4.2/5"
  },
  {
    "id": 27,
    "name": "ลาดบัวหลวงรักษาสัตว์",
    "address": "ตัวอำเภอลาดบัวหลวง",
    "location": {
      "lat": 14.16000,
      "lng": 100.28000
    },
    "contact_info": "N/A",
    "service_detail": "รักษาโรคทั่วไป, ฉีดวัคซีน",
    "reviews": "จุดพึ่งพิงสำคัญของโซนลาดบัวหลวง",
    "rating": "4.0/5"
  },
  {
    "id": 28,
    "name": "รติมาสัตวแพทย์ คลินิก",
    "address": "ถ.ท่าเรือ-พระพุทธบาท อ.ท่าเรือ",
    "location": {
      "lat": 14.56787,
      "lng": 100.72574
    },
    "contact_info": "N/A",
    "service_detail": "รักษาโรคทั่วไป, ทำหมัน",
    "reviews": "บริการดี ราคามาตรฐานท้องถิ่น",
    "rating": "4.1/5"
  },
  {
    "id": 29,
    "name": "คลินิกธรรมรัตน์ สัตวแพทย์",
    "address": "ใกล้ตลาดนครหลวง อ.นครหลวง",
    "location": {
      "lat": 14.46000,
      "lng": 100.61000
    },
    "contact_info": "N/A",
    "service_detail": "รักษาโรคทั่วไป, ป้องกันเห็บหมัด",
    "reviews": "สะดวกสำหรับชาวนครหลวง",
    "rating": "4.0/5"
  },
  {
    "id": 30,
    "name": "คลินิกสัตวแพทย์ภาชี",
    "address": "ตลาดภาชี อ.ภาชี",
    "location": {
      "lat": 14.44500,
      "lng": 100.72000
    },
    "contact_info": "N/A",
    "service_detail": "รักษาโรคทั่วไป, วัคซีน",
    "reviews": "คลินิกประจำอำเภอ ดูแลดี",
    "rating": "4.0/5"
  }
]